[
  {
    "fullName": "Daniel Szekely",
    "location": {
      "name": "Comfort Hotel",
      "address": "110 Rue des Orteaux",
      "latitude": 48.855495,
      "longitude": 2.409855
    }
  }, {
    "nickName": "hubudibu",
    "fullName": "Aniko Fejes",
    "twitter": "hubudibu",
    "location": {
      "name": "Apartment 31",
      "address": "9 Rue Chappe",
      "latitude": 48.8845422,
      "longitude": 2.3416971
    }
  }, {
    "nickName": "gex",
    "fullName": "Gergo Szonyi",
    "twitter": "szexigexi",
    "location": {
      "name": "Hotel Kyriad",
      "address": "30 Rue Lucien Sampaix",
      "latitude": 48.8727719,
      "longitude": 2.3615885
    }
  }, {
    "nickName": "johnny",
    "fullName": "Janos Zab",
    "location": {
      "name": "Hotel Merryl",
      "address": "7-9 Rue Pajol",
      "latitude": 48.8854271,
      "longitude": 2.3604891
    }
  }, {
    "fullName": "Tamas Puski",
    "twitter": "tpuski",
    "location": {
      "name": "Comfort Hotel",
      "address": "16 Rue Tholozé",
      "latitude": 48.8864453,
      "longitude": 2.3355704
    }
  }, {
    "fullName": "DotCSS",
    "twitter": "dotcss",
    "location": {
      "name": "Théâtre des Variétés",
      "address": "7 Boulevard Montmartre",
      "latitude": 48.871663,
      "longitude": 2.3420947
    }
  }, {
    "fullName": "DotJS",
    "twitter": "dotjs",
    "location": {
      "name": "Théâtre de Paris",
      "address": "15 Rue Blanche",
      "latitude": 48.8785733,
      "longitude": 2.3316175
    }
  },
  {
    "name": "mitoHQ",
    "fullName": "a mitosok",
    "location": {
      "name": "Art & Romance, balcony, nice view!",
      "address": "4 Rue de Sambre-et-Meuse",
      "latitude": 48.8753513,
      "longitude": 2.3698009
    },
  {
    "name": "Dodi",
    "fullName": "Gál József",
    "location": {
      "name": "Hôtel Pax Opéra",
      "address": "47 rue de Trévise",
      "latitude": 48.874038,
      "longitude": 2.345333
    }
  }
]
